[{
        "id": 1,
        "date": "18/05/2023",
        "city": "Amsterdam",
        "country": "NL",
        "name": "Ziggo Dome",
        "lat": 52.31452,
        "lon": 4.93877,
        "class": "DeltaMachine"
    },
    {
        "id": 2,
        "date": "20/05/2023",
        "city": "Anversa",
        "country": "BE",
        "name": "Sportpaleis Antwerpen",
        "lat": 51.23108167045278,
        "lon": 4.441361692345381,
        "class": "Angel1"
    },
    {
        "id": 3,
        "date": "26/05/2023",
        "city": "Lipsia",
        "country": "DE",
        "name": "Leipziger Festwiese",
        "lat": 51.342931550431956,
        "lon": 12.34959536474302,
        "class": "Barrell"
    },
    {
        "id": 4,
        "date": "28/05/2023",
        "city": "Bratislava",
        "country": "SK",
        "name": "Národny Futbalovy Stadión",
        "lat": 48.16335034278178,
        "lon": 17.13758685340995,
        "class": "Broken"
    },
    {
        "id": 5,
        "date": "11/06/2023",
        "city": "Bern",
        "country": "CH",
        "name": "Wankdorf",
        "lat": 46.96354,
        "lon": 7.46497,
        "class": "Counterfeit"
    },
    {
        "id": 6,
        "date": "20/06/2023",
        "city": "Monaco",
        "country": "DE",
        "name": "Olympiastadion",
        "lat": 48.17307995784805,
        "lon": 11.546569522873952,
        "class": "Devotion"
    },
    {
        "id": 7,
        "date": "29/06/2023",
        "city": "Francoforte",
        "country": "DE",
        "name": "Deutsche Bank Park",
        "lat": 50.06866300896326,
        "lon": 8.646158615469298,
        "class": "Dotmatrx"
    },
    {
        "id": 8,
        "date": "14/07/2023",
        "city": "Milano",
        "country": "IT",
        "name": "San Siro",
        "lat": 45.47791884619711,
        "lon": 9.124249633217454,
        "class": "Exciter"
    },
    {
        "id": 9,
        "date": "16/07/2023",
        "city": "Bologna",
        "country": "IT",
        "name": "Stadio Renato Dall'Ara",
        "lat": 44.492161965621804,
        "lon": 11.309944766562259,
        "class": "Gahan"
    },
    {
        "id": 10,
        "date": "28/07/2023",
        "city": "Budapest",
        "country": "HU",
        "name": "Puskás Aréna",
        "lat": 47.50293983485959,
        "lon": 19.097193429732318,
        "class": "Liquidn"
    },
    {
        "id": 11,
        "date": "30/07/2023",
        "city": "Praga",
        "country": "CZ",
        "name": "Letnany Airport",
        "lat": 50.13115535502723,
        "lon": 14.524957731877757,
        "class": "Pain"
    }
]